[{"Longitude":"-81.9346311","Latitude":"34.90791653","Station Name":"Arkwright FD","Address":"1070 Southport Rd, Spartanburg, SC 29306"},{"Longitude":"-82.360473","Latitude":"34.772314","Station Name":"Belmont FD","Address":"701 Fork Shoals Rd, Greenville, SC 29605"},{"Longitude":"-82.468695","Latitude":"34.878723","Station Name":"Berea FD Station 1","Address":"7401 White Horse Rd, Greenville, SC 29611"},{"Longitude":"-82.470261","Latitude":"34.917907","Station Name":"Berea FD Station 2","Address":"54 Old Hunts Bridge, Greenville, SC 29617"},{"Longitude":"-82.444689","Latitude":"34.893402","Station Name":"Berea FD Station 3","Address":"401 Sulphur Springs Road, Greenville, SC 29617"},{"Longitude":"-82.256892","Latitude":"34.857306","Station Name":"Boiling Springs FD Station 1","Address":"5020 Pelham Rd, Greenville, SC 29615"},{"Longitude":"-81.97495765","Latitude":"35.04105307","Station Name":"Boiling Springs FD Station 1","Address":"905 Wesley Ct, Boiling Springs, SC 29316"},{"Longitude":"-82.290559","Latitude":"34.886961","Station Name":"Boiling Springs FD Station 2","Address":"2015 Hudson Rd, Greer, SC 29650"},{"Longitude":"-81.94147956","Latitude":"35.08049657","Station Name":"Boiling Springs FD Station 2","Address":"325 Mountain View Rd, Boiling Springs, SC 29316"},{"Longitude":"-82.267465","Latitude":"34.88876","Station Name":"Boiling Springs FD Station 3","Address":"228 S Batesville Rd, Greer, SC 29650"},{"Longitude":"-82.15075834","Latitude":"35.11598002","Station Name":"Campobello FD","Address":"50 Broad St, Campobello, SC 29322"},{"Longitude":"-82.264356","Latitude":"34.636534","Station Name":"Canebrake FD Station 1","Address":"100 Hillside Church Rd, Fountain Inn, SC 29644"},{"Longitude":"-82.306649","Latitude":"34.623159","Station Name":"Canebrake FD Station 2","Address":"McKelvey Rd & Berry Rd, Fountain Inn, SC"},{"Longitude":"-82.258311","Latitude":"34.598976","Station Name":"Canebrake FD Station 3","Address":"Hillside Church Rd & McKittrick Bridge Rd, Fountain Inn, SC"},{"Longitude":"-81.89752357","Latitude":"35.0385792","Station Name":"Cherokee Springs FD Station 1","Address":"201 Flatwood Dr, Chesnee, SC 29323"},{"Longitude":"-81.92295043","Latitude":"35.08501633","Station Name":"Cherokee Springs FD Station 2","Address":"870 Sandy Ford Rd, Chesnee, SC 29323"},{"Longitude":"-81.94653435","Latitude":"35.0363256","Station Name":"Cherokee Springs FD Station 3","Address":"3910 Parris Bridge Rd, Boiling Springs, SC 29316"},{"Longitude":"-81.85971005","Latitude":"35.12071685","Station Name":"Chesnee Community FD Station 1","Address":"5854 Chesnee Hwy, Chesnee, SC 29323"},{"Longitude":"-81.89667516","Latitude":"35.1617486","Station Name":"Chesnee Community FD Station 2","Address":"1500 Hwy 11 W, Chesnee, SC 29323"},{"Longitude":"-82.220768","Latitude":"34.807117","Station Name":"Clear Spring FD Station 1","Address":"3008 Woodruff Rd, Simpsonville, SC 29681"},{"Longitude":"-82.17848","Latitude":"34.759159","Station Name":"Clear Spring FD Station 2","Address":"2435 E Georgia Rd, Simpsonville, SC 29681"},{"Longitude":"-81.84139171","Latitude":"34.9933706","Station Name":"Converse FD","Address":"107 Tram St, Spartanburg, SC 29307"},{"Longitude":"-81.9623483","Latitude":"35.15008335","Station Name":"Cooley Springs-Fingerville FD","Address":"3325 Hwy 11 W, Chesnee, SC 29323"},{"Longitude":"-81.80281827","Latitude":"35.02284439","Station Name":"Cowpens FD","Address":"144 Battleground Rd, Cowpens, SC 29330"},{"Longitude":"-81.88466218","Latitude":"34.90707834","Station Name":"Croft FD","Address":"370 Cedar Springs Rd, Spartanburg, SC 29302"},{"Longitude":"-81.85762114","Latitude":"34.64179438","Station Name":"Cross Anchor FD","Address":"11925 Hwy 56, Cross Anchor, SC, 29331"},{"Longitude":"-82.383562","Latitude":"34.756854","Station Name":"Donaldson Center FD","Address":"2291 Perimeter Rd, Greenville, SC 29605"},{"Longitude":"-81.90139186","Latitude":"34.97223233","Station Name":"Drayton FD","Address":"50 Carney St, Drayton, SC, 29333"},{"Longitude":"-82.429556","Latitude":"34.914713","Station Name":"Duncan Chapel FD","Address":"5111 Old Buncombe Rd, Greenville, SC 29617"},{"Longitude":"-82.14298382","Latitude":"34.93726991","Station Name":"Duncan FD Station 1","Address":"230 School St, Duncan, SC 29334"},{"Longitude":"-82.17607512","Latitude":"34.92161533","Station Name":"Duncan FD Station 2","Address":"945 Gilliam Rd, Greer, SC 29651"},{"Longitude":"-82.10989844","Latitude":"34.95564019","Station Name":"Duncan FD Station 3","Address":"127 Syphrit Rd, Wellford, SC 29385"},{"Longitude":"-82.308792","Latitude":"34.516639","Station Name":"Dunklin FD Station 1","Address":"11353 Augusta Rd, Honea Path, SC 29654"},{"Longitude":"-82.284272","Latitude":"34.57261","Station Name":"Dunklin FD Station 2","Address":"1026 Dunklin Bridge Rd, Fountain Inn, SC 29644"},{"Longitude":"-82.327981","Latitude":"34.564548","Station Name":"Dunklin FD Station 3","Address":"10569 Augusta Rd, Belton, SC 29627"},{"Longitude":"-81.96486735","Latitude":"34.65462327","Station Name":"Enoree FD","Address":"15799 Hwy 221, Enoree, SC 29335"},{"Longitude":"-82.200512","Latitude":"34.695491","Station Name":"Fountain Inn FD","Address":"200 N Main St, Fountain Inn, SC 29644"},{"Longitude":"-82.413613","Latitude":"34.785849","Station Name":"Gantt FD Station 1","Address":"1331 White Horse Rd, Greenville, SC 29605"},{"Longitude":"-82.378675","Latitude":"34.777949","Station Name":"Gantt FD Station 2","Address":"5604 Augusta Rd, Greenville, SC 29605"},{"Longitude":"-82.421064","Latitude":"34.800889","Station Name":"Gantt FD Station 3","Address":"31 Murrell Rd, Greenville, SC 29605"},{"Longitude":"-82.33489","Latitude":"35.120799","Station Name":"Glassy Mountain FD Station 1","Address":"2015 Hwy 11, Landrum, SC 29356"},{"Longitude":"-82.456877","Latitude":"35.123704","Station Name":"Glassy Mountain FD Station 2","Address":"315 Beaver Dam Road, Travelers Rest, SC 29690"},{"Longitude":"-82.225043","Latitude":"35.160297","Station Name":"Glassy Mountain FD Station 3","Address":"400 Oak Grove Road, Landrum, SC 29356"},{"Longitude":"-82.426525","Latitude":"35.12731","Station Name":"Glassy Mountain FD Station 4","Address":"49 Dividing Water Rd, Travelers Rest, SC 29690"},{"Longitude":"-82.32811","Latitude":"35.149986","Station Name":"Glassy Mountain FD Station 5","Address":"3 Rolling Hill Way, Landrum SC, 29356"},{"Longitude":"-81.83579353","Latitude":"34.94588991","Station Name":"Glendale FD Station 1","Address":"215 Church St, Glendale, SC 29346"},{"Longitude":"-81.82457083","Latitude":"34.92882947","Station Name":"Glendale FD Station 2","Address":"137 Brown Rd, Spartanburg, SC 29302"},{"Longitude":"-81.87043647","Latitude":"34.82803763","Station Name":"Glenn Springs-Pauline FD Station 1","Address":"3104 Hwy 56, Pauline, SC 29374"},{"Longitude":"-81.87374915","Latitude":"34.7733097","Station Name":"Glenn Springs-Pauline FD Station 2","Address":"1475 Blackstock Rd, Pauline, SC 29374"},{"Longitude":"-82.226921","Latitude":"35.096266","Station Name":"Gowensville FD","Address":"2201 W Old Highway 14, Landrum, SC 29356"},{"Longitude":"-82.416531","Latitude":"34.8463","Station Name":"Greenville FD Station 2","Address":"125 Leach St, Greenville, SC 29601"},{"Longitude":"-82.394174","Latitude":"34.824878","Station Name":"Greenville FD Station 3","Address":"2101 Augusta St, Greenville, SC 29605"},{"Longitude":"-82.385651","Latitude":"34.855543","Station Name":"Greenville FD Station 4","Address":"880 E Stone Ave, Greenville, SC 29601"},{"Longitude":"-82.352453","Latitude":"34.833638","Station Name":"Greenville FD Station 5","Address":"15 Waite St, Greenville, SC 29607"},{"Longitude":"-82.353545","Latitude":"34.867766","Station Name":"Greenville FD Station 6","Address":"14 Pelham Rd, Greenville, SC 29615"},{"Longitude":"-82.387612","Latitude":"34.881082","Station Name":"Greenville FD Station 7","Address":"801 Rutherford Rd, Greenville, SC 29609"},{"Longitude":"-82.228224","Latitude":"34.938895","Station Name":"Greer FD Station 1","Address":"103 W Poinsett St, Greer, SC 29650"},{"Longitude":"-82.256302","Latitude":"34.927262","Station Name":"Greer FD Station 2","Address":"1985 Hood Rd, Greer, SC 29650"},{"Longitude":"-82.216181","Latitude":"34.893842","Station Name":"GSP Airport FD","Address":"2000 GSP Dr Suite 1, Greer, SC 29651"},{"Longitude":"-81.95913297","Latitude":"34.97618676","Station Name":"Hilltop FD","Address":"144 Crockett St, Spartanburg, SC 29303"},{"Longitude":"-81.92789751","Latitude":"34.69602744","Station Name":"Hobbysville FD","Address":"4331 Cross Anchor Rd, Enoree, SC 29335"},{"Longitude":"-82.18445753","Latitude":"35.02755216","Station Name":"Holly Springs FD","Address":"3301 Hwy 357, Inman, SC 29349"},{"Longitude":"-82.11531478","Latitude":"35.05524144","Station Name":"Inman Community FD Station 1","Address":"150 Windmill Hill Rd, Inman, SC 29349"},{"Longitude":"-82.0767243","Latitude":"35.03829128","Station Name":"Inman Community FD Station 2","Address":"11130 Asheville Hwy., Inman, South Carolina 29349"},{"Longitude":"-82.09285828","Latitude":"35.04737406","Station Name":"Inman FD","Address":"6 N Humphrey St, Inman, SC 29349"},{"Longitude":"-82.275952","Latitude":"34.985887","Station Name":"Lake Cunningham FD","Address":"2802 N Mcelhaney Rd, Greer, SC 29651"},{"Longitude":"-82.19138898","Latitude":"35.17760525","Station Name":"Landrum FD","Address":"200 N Trade Ave, Landrum, SC 29356"},{"Longitude":"-82.308235","Latitude":"34.779091","Station Name":"Mauldin FD Headquarters","Address":"9 E Butler Rd, Mauldin, SC 29662"},{"Longitude":"-82.294364","Latitude":"34.802261","Station Name":"Mauldin FD Station 1","Address":"802 Miller Rd, Greenville, SC 29607"},{"Longitude":"-82.276054","Latitude":"34.820395","Station Name":"Mauldin FD Station 2","Address":"300 Rocky Creek Rd, Greenville, SC 29615"},{"Longitude":"-81.85991835","Latitude":"35.08157767","Station Name":"Mayo FD Station 1","Address":"150 Church St, Mayo, SC 29368"},{"Longitude":"-81.90505386","Latitude":"35.10914465","Station Name":"Mayo FD Station 2","Address":"1296 Buck Creek Rd, Chesnee, SC 29323"},{"Longitude":"-82.04407249","Latitude":"35.12152883","Station Name":"New Prospect FD Station 1","Address":"8951 Hwy 9, Inman, SC 29349"},{"Longitude":"-82.08888125","Latitude":"35.16884685","Station Name":"New Prospect FD Station 2","Address":"945 Loop Rd, Campobello, SC 29322"},{"Longitude":"-82.399639","Latitude":"34.983707","Station Name":"North Greenville FD Station 1","Address":"923 Tigerville Rd, Travelers Rest, SC 29690"},{"Longitude":"-82.476522","Latitude":"34.970876","Station Name":"North Greenville FD Station 2","Address":"596 Hodgens Dr, Travelers Rest, SC 29690"},{"Longitude":"-82.01081292","Latitude":"35.00564008","Station Name":"North Spartanburg FD Station 1","Address":"8767 Asheville Hwy, Boiling Springs, SC 29316"},{"Longitude":"-82.07515117","Latitude":"34.98820291","Station Name":"North Spartanburg FD Station 2","Address":"1556 John Dodd Rd, Spartanburg, SC 29303"},{"Longitude":"-82.03138722","Latitude":"34.99244684","Station Name":"North Spartanburg FD Station 3","Address":"2621 New Cut Rd, Spartanburg, SC 29303"},{"Longitude":"-81.76719327","Latitude":"34.89641741","Station Name":"Pacolet FD Station 1","Address":"160 Hillbrook Cir, Pacolet, SC 29372"},{"Longitude":"-81.74739501","Latitude":"34.91530068","Station Name":"Pacolet FD Station 2","Address":"1425 N Hwy 150, Pacolet, SC 29372"},{"Longitude":"-82.418755","Latitude":"34.87033","Station Name":"Parker FD Station 1","Address":"107 Cedar Lane Rd, Greenville, SC 29601"},{"Longitude":"-82.440162","Latitude":"34.832933","Station Name":"Parker FD Station 2","Address":"104 S Washington Ave, Greenville, SC 29611"},{"Longitude":"-82.398121","Latitude":"34.893607","Station Name":"Parker FD Station 3","Address":"State Park Rd & Worley Rd, Greenville, SC"},{"Longitude":"-82.424675","Latitude":"34.819634","Station Name":"Parker FD Station 4","Address":"86 Allen St, Greenville, SC 29605"},{"Longitude":"-82.22216092","Latitude":"34.8618395","Station Name":"Pelham-Batesville FD Station 1","Address":"2761 S Hwy 14, Greer, SC 29650"},{"Longitude":"-82.240216","Latitude":"34.906302","Station Name":"Pelham-Batesville FD Station 2","Address":"1605 S Hwy 14, Greer, SC 29650"},{"Longitude":"-82.228122","Latitude":"34.828244","Station Name":"Pelham-Batesville FD Station 3","Address":"431 Batesville Rd, Simpsonville, SC 29681"},{"Longitude":"-82.19790044","Latitude":"34.87590758","Station Name":"Pelham-Batesville FD Station 4","Address":"789 Brockman Mcclimon Rd, Greer, SC 29651"},{"Longitude":"-82.461847","Latitude":"34.704433","Station Name":"Piedmont FD Station 1","Address":"3 Highway 86, Piedmont, SC 29673"},{"Longitude":"-82.438633","Latitude":"34.73433","Station Name":"Piedmont FD Station 2","Address":"Piedmont Golf Course Rd, Piedmont, SC"},{"Longitude":"-82.372149","Latitude":"34.912545","Station Name":"Piedmont Park FD Station 1","Address":"2119 State Park Rd, Greenville, SC 29609"},{"Longitude":"-82.345764","Latitude":"34.96193","Station Name":"Piedmont Park FD Station 2","Address":"E Darby Rd, Taylors, SC"},{"Longitude":"-82.03887815","Latitude":"34.87475539","Station Name":"Poplar Springs FD Station 1","Address":"3400 Moore-Duncan Hwy, Moore, SC 29369"},{"Longitude":"-82.07868499","Latitude":"34.92513486","Station Name":"Poplar Springs FD Station 2","Address":"2050 Nazareth Rd, Wellford, SC 29385"},{"Longitude":"-82.01444007","Latitude":"34.80246332","Station Name":"Poplar Springs FD Station 3","Address":"7850 Hwy 221, Moore, SC 29369"},{"Longitude":"-82.11660648","Latitude":"34.86441386","Station Name":"Reidville FD","Address":"7450 Reidville Rd, Reidville, SC 29375"},{"Longitude":"-82.5395","Latitude":"35.120295","Station Name":"River Falls FD","Address":"602 River Falls Rd, Marietta, SC 29661"},{"Longitude":"-81.9572612","Latitude":"34.8681909","Station Name":"Roebuck FD","Address":"2639 Stone Station Rd, Roebuck, SC 29376"},{"Longitude":"-82.251533","Latitude":"34.739091","Station Name":"Simpsonville FD Station 1","Address":"403 E Curtis St, Simpsonville, SC 29681"},{"Longitude":"-82.267808","Latitude":"34.730935","Station Name":"Simpsonville FD Station 2","Address":"9 Capewood Rd, Simpsonville, SC 29680"},{"Longitude":"-82.257138","Latitude":"34.773697","Station Name":"Simpsonville FD Station 3","Address":"839 Hwy 14, Simpsonville, SC 29681"},{"Longitude":"-82.274053","Latitude":"34.695279","Station Name":"Simpsonville FD Station 4","Address":"1375 Neely Ferry Rd, Simpsonville, SC 29680"},{"Longitude":"-82.501214","Latitude":"35.026728","Station Name":"Slater Marietta FD Station 1","Address":"3001 Geer Hwy, Marietta SC 29661"},{"Longitude":"-82.44566","Latitude":"35.041579","Station Name":"Slater Marietta FD Station 2","Address":"1030 Bates Crossing Rd, Travelers Rest, SC 29690"},{"Longitude":"-82.39906","Latitude":"34.6852","Station Name":"South Greenville FD Station 1","Address":"8305 Augusta Rd, Pelzer, SC 29669"},{"Longitude":"-82.386571","Latitude":"34.720319","Station Name":"South Greenville FD Station 2","Address":"29005 Old Augusta Rd, Piedmont, SC 29673"},{"Longitude":"-82.332541","Latitude":"34.707496","Station Name":"South Greenville FD Station 3","Address":"3 Holcombe Rd, Piedmont, SC 29673 "},{"Longitude":"-82.391662","Latitude":"34.629165","Station Name":"South Greenville FD Station 4","Address":"30044 Augusta Rd, Pelzer, SC 29669"},{"Longitude":"-82.370376","Latitude":"34.546788","Station Name":"South Greenville FD Station 5","Address":"1535 Holiday Dam Rd, Belton, SC 29627"},{"Longitude":"-82.306695","Latitude":"34.710869","Station Name":"South Greenville FD Station 6","Address":"W Georgia Rd & Rocky Creek Rd, Simpsonville, SC 29680"},{"Longitude":"-81.932344","Latitude":"34.947636","Station Name":"Spartanburg City FD Station 1","Address":"151 S Spring St, Spartanburg, SC 29306"},{"Longitude":"-81.90631072","Latitude":"34.93878098","Station Name":"Spartanburg City FD Station 2","Address":"905 Union St, Spartanburg, SC 29302"},{"Longitude":"-81.94092347","Latitude":"34.95867481","Station Name":"Spartanburg City FD Station 3","Address":"510 Magnolia St, Spartanburg, SC 29303"},{"Longitude":"-81.97953678","Latitude":"34.9343232","Station Name":"Spartanburg City FD Station 4","Address":"200 Camelot Dr, Spartanburg, SC 29301"},{"Longitude":"-81.88909673","Latitude":"34.96545677","Station Name":"Spartanburg City FD Station 5","Address":"1075 Fernwood Glendale Rd, Spartanburg, SC 29307"},{"Longitude":"-82.09247671","Latitude":"34.9365773","Station Name":"Startex FD","Address":"170 Spartanburg Rd, Startex, SC 29377"},{"Longitude":"-82.315015","Latitude":"34.918707","Station Name":"Taylors FD Station 1","Address":"3335 Wade Hampton Blvd., Taylors, SC 29687"},{"Longitude":"-82.313797","Latitude":"34.899294","Station Name":"Taylors FD Station 2","Address":"405 Brushy Creek Road, Taylors, SC 29687"},{"Longitude":"-82.300333","Latitude":"34.952473","Station Name":"Taylors FD Station 3","Address":"858 Saint Mark Road, Taylors, SC 29687"},{"Longitude":"-82.377119","Latitude":"35.065481","Station Name":"Tigerville FD","Address":"2605 Hwy 414, Travelers Rest, SC 29690"},{"Longitude":"-82.437093","Latitude":"34.970894","Station Name":"Travelers Rest FD","Address":"117 N Poinsett Hwy, Travelers Rest, SC 29690"},{"Longitude":"-82.17377398","Latitude":"34.95733475","Station Name":"Tyger River FD Station 1","Address":"1090 Gap Creek Rd, Lyman, SC 29365"},{"Longitude":"-82.13020856","Latitude":"34.95044247","Station Name":"Tyger River FD Station 2","Address":"355 Locust St, Lyman, SC 29365"},{"Longitude":"-81.96511245","Latitude":"34.96468713","Station Name":"Una FD","Address":"1025 Hayne St, Spartanburg, SC 29301"},{"Longitude":"-82.335239","Latitude":"34.902501","Station Name":"Wade Hampton FD Station 1","Address":"2815 Wade Hampton Blvd, Taylors, SC 29687"},{"Longitude":"-82.313974","Latitude":"34.855461","Station Name":"Wade Hampton FD Station 2","Address":"1118 Pelham Rd., Greenville, SC 29615"},{"Longitude":"-82.358687","Latitude":"34.884307","Station Name":"Wade Hampton FD Station 3","Address":"15222 Pine Knoll Dr, Greenville, SC 29609"},{"Longitude":"-82.317681","Latitude":"34.878899","Station Name":"Wade Hampton FD Station 4","Address":"4211 East North Street, Greenville, S.C. 29615"},{"Longitude":"-82.00359193","Latitude":"34.93674099","Station Name":"Westview-Fairforest FD Station 1","Address":"311 N Blackstock Rd, Spartanburg, SC 29301"},{"Longitude":"-82.00501961","Latitude":"34.90697299","Station Name":"Westview-Fairforest FD Station 2","Address":"4247 Anderson Mill Rd, Moore, SC 29369"},{"Longitude":"-82.02143007","Latitude":"34.96362911","Station Name":"Westview-Fairforest FD Station 3","Address":"870 Falling Creek Rd, Spartanburg, SC 29301"},{"Longitude":"-81.92000688","Latitude":"34.99412741","Station Name":"Whitney FD","Address":"220 Bryant Rd, Spartanburg, SC 29303"},{"Longitude":"-82.02954135","Latitude":"34.74386049","Station Name":"Woodruff FD Station 1","Address":"220 Armory Dr, Woodruff, SC 29388"},{"Longitude":"-82.11181118","Latitude":"34.77104359","Station Name":"Woodruff FD Station 2","Address":"707 River Rd, Woodruff, SC 29388"},{"Longitude":""}]